{
	"konserter": {
		"lokaler": [
			{
				"id": 1,
				"lat"  : "60.385064",
				"long" : "5.324460",
				"location" : "Hulen"
			},
			{
				"id": 2,
				"lat"  : "60.389769", 
				"long" : "5.321782",
				"location" : "Det Akademiske Kvarter"
			},
			{
				"id": 3,
				"lat"  : "60.389427", 
				"long" : "5.323747",
				"location" : "Garage"
			},
			{
				"id": 4,
				"lat"  : "60.389091", 
				"long" : "5.328554",
				"location" : "Lysverket"
			},
			{
				"id": 5,
				"lat"  : "60.396314", 
				"long" : "5.322313",
				"location" : "Madam Felle"
			},
			{
				"id": 6,
				"lat"  : "60.397887", 
				"long" : "5.307849",
				"location" : "USF Verftet"
			},
			{
				"id": 7,
				"lat"  : "60.389686", 
				"long" : "5.326494",
				"location" : "Landmark"
			},
			{
				"id": 8,
				"lat"  : "60.377197", 
				"long" : "5.338595",
				"location" : "Forum Scene"
			},
			{
				"id": 9,
				"lat"  : "60.392274", 
				"long" : "5.322530",
				"location" : "Ole Bull"
			},
			{
				"id": 10,
				"lat"  : "60.399978", 
				"long" : "5.318503",
				"location" : "Koengen"
			}
		],
		"konserter": [
			{
				"dato": "24-04-2015",
				"klokka": "20:00",
				"pris": "320",
				"artist": "Egil Olsen",
				"lokale": "Det Akademiske Kvarter"
			},
			{
				"dato": "25-04-2015",
				"klokka": "20:00",
				"pris": "320",
				"artist": "Herman's Hermits",
				"lokale": "Madam Felle"
			},
			{
				"dato": "21-04-2015",
				"klokka": "20:00",
				"pris": "320",
				"artist": "Ebbot Lundberg",
				"lokale": "Ole Bull"
			},
			{
				"dato": "25-04-2015",
				"klokka": "22:30",
				"pris": "320",
				"artist": "TOBB",
				"lokale": "Madam Felle"
			}
		],
		"artister": [
			{
				"navn": "Bergen Filharmoniske Orkester",
				"bilde": "",
				"sjanger": "Klassisk",
				"sanger": [
					{
						"navn": "Bojarenes Inntogsmarsj",
						"filplassering": "/media/Bergen Filharmoniske Orkester - Bojarenes Inntogsmars.mp3"
					}
				]
			},
			{
				"navn": "Cody Simpson",
				"sjanger": "",
				"sanger": [
					{
						"navn": "La Da Dee",
						"filplassering": "/media/Cody Simpson - La Da Dee.mp3"
					}
				]
			},
			{
				"navn": "Ebbot Lundberg",
				"sjanger": "",
				"sanger": [
					{
						"navn": "Dansa På Min Grav",
						"filplassering": "/media/Ebbot Lundberg - Dansa pa min grav.mp3"
					}
				]
			},
			{
				"navn": "Egil Olsen",
				"sjanger": "",
				"sanger": [
					{
						"navn": "California",
						"filplassering": "/media/Egil Olsen - California.mp3"
					},
					{
						"navn": "Bombastic",
						"filplassering": "/media/egil olsen -bombastic.m4a"
					}
				]
			},
			{
				"navn": "Eva & The Heartmaker",
				"sjanger": "",
				"sanger": [
					{
						"navn": "Gone In a Flash",
						"filplassering": "/media/Eva & The Heartmaker - Gone In A Flash.mp3"
					},
					{
						"navn": "Told You",
						"filplassering": "/media/Eva & The Heartmaker - Told You.mp3"
					}
				]
			},
			{
				"navn": "Herman's Hermits",
				"sjanger": "",
				"sanger": [
					{
						"navn": "No Milk Today",
						"filplassering": "/media/Herman's Hermits - No Milk Today.mp3"
					}
				]
			},
			{
				"navn": "Jaa9 & OnklP",
				"sjanger": "",
				"sanger": [
					{
						"navn": "Glir Forbi",
						"filplassering": "/media/Jaa9 & OnklP - Glir Forbi.mp3"
					}
				]
			},
			{
				"navn": "Katzenjammer",
				"sjanger": "",
				"sanger": [
					{
						"navn": "Rock - Paper - Scissorsi",
						"filplassering": "/media/Katzenjammer - Rock - Paper - Scissors.mp3"
					}
				]
			},
			{
				"navn": "Love Antell",
				"sjanger": "",
				"sanger": [
					{
						"navn": "Stjärna Där",
						"filplassering": "/media/Love Antell - Stjärna Där.mp3"
					}
				]
			},
			{
				"navn": "TOBB",
				"sjanger": "",
				"sanger": [
					{
						"navn": "@ Borggården",
						"filplassering": "/media/TOBB @ BORGGÅRDEN 2012.mp3"
					}
				]
			},
			{
				"navn": "Triggerfinger",
				"sjanger": "",
				"sanger": [
					{
						"navn": "I Follow Rivers",
						"filplassering": "/media/Triggerfinger - I follow Rivers.mp3"
					}
				]
			},
			{
				"navn": "Vamp",
				"sjanger": "",
				"sanger": [
					{
						"navn": "Liten Fuggel",
						"filplassering": "/media/Vamp - Liten Fuggel.mp3"
					},
					{
						"navn": "Tir N'a Noir",
						"filplassering": "/media/Vamp - Tir N'a Noir.mp3"
					}
				]
			},
			{
				"navn": "Vestlandsfanden",
				"sjanger": "",
				"sanger": [
					{
						"navn": "Sitt Heilt i Ro",
						"filplassering": "/media/Vestlandsfanden - Sitt heilt i ro.mp3"
					}
				]
			}	
		]
	}
}